[
  {
    "name": "New York",
    "country": "USA",
    "latitude": 40.7128,
    "longitude": -74.006
  },
  {
    "name": "Los Angeles",
    "country": "USA",
    "latitude": 34.0522,
    "longitude": -118.2437
  },
  {
    "name": "Chicago",
    "country": "USA",
    "latitude": 41.8781,
    "longitude": -87.6298
  },
  {
    "name": "Houston",
    "country": "USA",
    "latitude": 29.7604,
    "longitude": -95.3698
  },
  {
    "name": "Phoenix",
    "country": "USA",
    "latitude": 33.4484,
    "longitude": -112.074
  },
  {
    "name": "Philadelphia",
    "country": "USA",
    "latitude": 39.9526,
    "longitude": -75.1652
  },
  {
    "name": "San Antonio",
    "country": "USA",
    "latitude": 29.4241,
    "longitude": -98.4936
  },
  {
    "name": "San Diego",
    "country": "USA",
    "latitude": 32.7157,
    "longitude": -117.1611
  },
  {
    "name": "Dallas",
    "country": "USA",
    "latitude": 32.7767,
    "longitude": -96.797
  },
  {
    "name": "San Francisco",
    "country": "USA",
    "latitude": 37.7749,
    "longitude": -122.4194
  },
  {
    "name": "Miami",
    "country": "USA",
    "latitude": 25.7617,
    "longitude": -80.1918
  },
  {
    "name": "Atlanta",
    "country": "USA",
    "latitude": 33.749,
    "longitude": -84.388
  },
  {
    "name": "Boston",
    "country": "USA",
    "latitude": 42.3601,
    "longitude": -71.0589
  },
  {
    "name": "Seattle",
    "country": "USA",
    "latitude": 47.6062,
    "longitude": -122.3321
  },
  {
    "name": "Denver",
    "country": "USA",
    "latitude": 39.7392,
    "longitude": -104.9903
  },
  {
    "name": "Washington DC",
    "country": "USA",
    "latitude": 38.9072,
    "longitude": -77.0369
  },
  {
    "name": "Detroit",
    "country": "USA",
    "latitude": 42.3314,
    "longitude": -83.0458
  },
  {
    "name": "Portland",
    "country": "USA",
    "latitude": 45.5152,
    "longitude": -122.6784
  },
  {
    "name": "Las Vegas",
    "country": "USA",
    "latitude": 36.1699,
    "longitude": -115.1398
  },
  {
    "name": "Memphis",
    "country": "USA",
    "latitude": 35.1495,
    "longitude": -90.049
  },
  {
    "name": "Toronto",
    "country": "Canada",
    "latitude": 43.6532,
    "longitude": -79.3832
  },
  {
    "name": "Montreal",
    "country": "Canada",
    "latitude": 45.5017,
    "longitude": -73.5673
  },
  {
    "name": "Vancouver",
    "country": "Canada",
    "latitude": 49.2827,
    "longitude": -123.1207
  },
  {
    "name": "Calgary",
    "country": "Canada",
    "latitude": 51.0447,
    "longitude": -114.0719
  },
  {
    "name": "Ottawa",
    "country": "Canada",
    "latitude": 45.4215,
    "longitude": -75.6972
  },
  {
    "name": "Edmonton",
    "country": "Canada",
    "latitude": 53.5461,
    "longitude": -113.4937
  },
  {
    "name": "Mexico City",
    "country": "Mexico",
    "latitude": 19.4326,
    "longitude": -99.1332
  },
  {
    "name": "Guadalajara",
    "country": "Mexico",
    "latitude": 20.6597,
    "longitude": -103.3496
  },
  {
    "name": "Monterrey",
    "country": "Mexico",
    "latitude": 25.6866,
    "longitude": -100.3161
  },
  {
    "name": "Puebla",
    "country": "Mexico",
    "latitude": 19.0414,
    "longitude": -98.2063
  },
  {
    "name": "Tijuana",
    "country": "Mexico",
    "latitude": 32.5149,
    "longitude": -117.0382
  },
  {
    "name": "Havana",
    "country": "Cuba",
    "latitude": 23.1136,
    "longitude": -82.3666
  },
  {
    "name": "Guatemala City",
    "country": "Guatemala",
    "latitude": 14.6349,
    "longitude": -90.5069
  },
  {
    "name": "San José",
    "country": "Costa Rica",
    "latitude": 9.9281,
    "longitude": -84.0907
  },
  {
    "name": "Panama City",
    "country": "Panama",
    "latitude": 8.9824,
    "longitude": -79.5199
  },
  {
    "name": "Managua",
    "country": "Nicaragua",
    "latitude": 12.1149,
    "longitude": -86.2362
  },
  {
    "name": "San Salvador",
    "country": "El Salvador",
    "latitude": 13.6929,
    "longitude": -89.2182
  },
  {
    "name": "Tegucigalpa",
    "country": "Honduras",
    "latitude": 14.0723,
    "longitude": -87.1921
  },
  {
    "name": "Kingston",
    "country": "Jamaica",
    "latitude": 18.0179,
    "longitude": -76.8099
  },
  {
    "name": "Santo Domingo",
    "country": "Dominican Republic",
    "latitude": 18.4861,
    "longitude": -69.9312
  },
  {
    "name": "São Paulo",
    "country": "Brazil",
    "latitude": -23.5505,
    "longitude": -46.6333
  },
  {
    "name": "Rio de Janeiro",
    "country": "Brazil",
    "latitude": -22.9068,
    "longitude": -43.1729
  },
  {
    "name": "Brasília",
    "country": "Brazil",
    "latitude": -15.7975,
    "longitude": -47.8919
  },
  {
    "name": "Salvador",
    "country": "Brazil",
    "latitude": -12.9714,
    "longitude": -38.5014
  },
  {
    "name": "Fortaleza",
    "country": "Brazil",
    "latitude": -3.7172,
    "longitude": -38.5433
  },
  {
    "name": "Belo Horizonte",
    "country": "Brazil",
    "latitude": -19.9167,
    "longitude": -43.9345
  },
  {
    "name": "Manaus",
    "country": "Brazil",
    "latitude": -3.119,
    "longitude": -60.0217
  },
  {
    "name": "Curitiba",
    "country": "Brazil",
    "latitude": -25.429,
    "longitude": -49.2671
  },
  {
    "name": "Recife",
    "country": "Brazil",
    "latitude": -8.0476,
    "longitude": -34.877
  },
  {
    "name": "Buenos Aires",
    "country": "Argentina",
    "latitude": -34.6037,
    "longitude": -58.3816
  },
  {
    "name": "Córdoba",
    "country": "Argentina",
    "latitude": -31.4201,
    "longitude": -64.1888
  },
  {
    "name": "Rosario",
    "country": "Argentina",
    "latitude": -32.9468,
    "longitude": -60.6393
  },
  {
    "name": "Mendoza",
    "country": "Argentina",
    "latitude": -32.8895,
    "longitude": -68.8458
  },
  {
    "name": "Santiago",
    "country": "Chile",
    "latitude": -33.4489,
    "longitude": -70.6693
  },
  {
    "name": "Valparaíso",
    "country": "Chile",
    "latitude": -33.0472,
    "longitude": -71.6127
  },
  {
    "name": "Concepción",
    "country": "Chile",
    "latitude": -36.827,
    "longitude": -73.0503
  },
  {
    "name": "Lima",
    "country": "Peru",
    "latitude": -12.0464,
    "longitude": -77.0428
  },
  {
    "name": "Cusco",
    "country": "Peru",
    "latitude": -13.532,
    "longitude": -71.9675
  },
  {
    "name": "Bogotá",
    "country": "Colombia",
    "latitude": 4.711,
    "longitude": -74.0721
  },
  {
    "name": "Medellín",
    "country": "Colombia",
    "latitude": 6.2476,
    "longitude": -75.5658
  },
  {
    "name": "Cali",
    "country": "Colombia",
    "latitude": 3.4516,
    "longitude": -76.532
  },
  {
    "name": "Caracas",
    "country": "Venezuela",
    "latitude": 10.4806,
    "longitude": -66.9036
  },
  {
    "name": "Maracaibo",
    "country": "Venezuela",
    "latitude": 10.7303,
    "longitude": -71.6676
  },
  {
    "name": "Quito",
    "country": "Ecuador",
    "latitude": -0.1807,
    "longitude": -78.4678
  },
  {
    "name": "Guayaquil",
    "country": "Ecuador",
    "latitude": -2.203,
    "longitude": -79.8975
  },
  {
    "name": "La Paz",
    "country": "Bolivia",
    "latitude": -16.5,
    "longitude": -68.15
  },
  {
    "name": "Santa Cruz",
    "country": "Bolivia",
    "latitude": -17.8146,
    "longitude": -63.1561
  },
  {
    "name": "Montevideo",
    "country": "Uruguay",
    "latitude": -34.9011,
    "longitude": -56.1645
  },
  {
    "name": "Asunción",
    "country": "Paraguay",
    "latitude": -25.2637,
    "longitude": -57.5759
  },
  {
    "name": "Cayenne",
    "country": "French Guiana",
    "latitude": 4.9372,
    "longitude": -52.3252
  },
  {
    "name": "London",
    "country": "UK",
    "latitude": 51.5074,
    "longitude": -0.1278
  },
  {
    "name": "Paris",
    "country": "France",
    "latitude": 48.8566,
    "longitude": 2.3522
  },
  {
    "name": "Berlin",
    "country": "Germany",
    "latitude": 52.52,
    "longitude": 13.405
  },
  {
    "name": "Hamburg",
    "country": "Germany",
    "latitude": 53.5511,
    "longitude": 9.9937
  },
  {
    "name": "Munich",
    "country": "Germany",
    "latitude": 48.1351,
    "longitude": 11.582
  },
  {
    "name": "Cologne",
    "country": "Germany",
    "latitude": 50.9375,
    "longitude": 6.9603
  },
  {
    "name": "Madrid",
    "country": "Spain",
    "latitude": 40.4168,
    "longitude": -3.7038
  },
  {
    "name": "Barcelona",
    "country": "Spain",
    "latitude": 41.3874,
    "longitude": 2.1686
  },
  {
    "name": "Valencia",
    "country": "Spain",
    "latitude": 39.4699,
    "longitude": -0.3763
  },
  {
    "name": "Rome",
    "country": "Italy",
    "latitude": 41.9028,
    "longitude": 12.4964
  },
  {
    "name": "Milan",
    "country": "Italy",
    "latitude": 45.4642,
    "longitude": 9.19
  },
  {
    "name": "Naples",
    "country": "Italy",
    "latitude": 40.8518,
    "longitude": 14.2681
  },
  {
    "name": "Turin",
    "country": "Italy",
    "latitude": 45.0703,
    "longitude": 7.6869
  },
  {
    "name": "Moscow",
    "country": "Russia",
    "latitude": 55.7558,
    "longitude": 37.6173
  },
  {
    "name": "Saint Petersburg",
    "country": "Russia",
    "latitude": 59.9343,
    "longitude": 30.3351
  },
  {
    "name": "Novosibirsk",
    "country": "Russia",
    "latitude": 55.0084,
    "longitude": 82.9357
  },
  {
    "name": "Yekaterinburg",
    "country": "Russia",
    "latitude": 56.8389,
    "longitude": 60.6057
  },
  {
    "name": "Amsterdam",
    "country": "Netherlands",
    "latitude": 52.3676,
    "longitude": 4.9041
  },
  {
    "name": "Rotterdam",
    "country": "Netherlands",
    "latitude": 51.9244,
    "longitude": 4.4777
  },
  {
    "name": "Brussels",
    "country": "Belgium",
    "latitude": 50.8503,
    "longitude": 4.3517
  },
  {
    "name": "Vienna",
    "country": "Austria",
    "latitude": 48.2082,
    "longitude": 16.3738
  },
  {
    "name": "Prague",
    "country": "Czech Republic",
    "latitude": 50.0755,
    "longitude": 14.4378
  },
  {
    "name": "Kraków",
    "country": "Poland",
    "latitude": 50.0647,
    "longitude": 19.945
  },
  {
    "name": "Budapest",
    "country": "Hungary",
    "latitude": 47.4979,
    "longitude": 19.0402
  },
  {
    "name": "Lisbon",
    "country": "Portugal",
    "latitude": 38.7223,
    "longitude": -9.1393
  },
  {
    "name": "Porto",
    "country": "Portugal",
    "latitude": 41.1579,
    "longitude": -8.6291
  },
  {
    "name": "Stockholm",
    "country": "Sweden",
    "latitude": 59.3293,
    "longitude": 18.0686
  },
  {
    "name": "Gothenburg",
    "country": "Sweden",
    "latitude": 57.7089,
    "longitude": 11.9746
  },
  {
    "name": "Oslo",
    "country": "Norway",
    "latitude": 59.9139,
    "longitude": 10.7522
  },
  {
    "name": "Copenhagen",
    "country": "Denmark",
    "latitude": 55.6761,
    "longitude": 12.5683
  },
  {
    "name": "Helsinki",
    "country": "Finland",
    "latitude": 60.1699,
    "longitude": 24.9384
  },
  {
    "name": "Dublin",
    "country": "Ireland",
    "latitude": 53.3498,
    "longitude": -6.2603
  },
  {
    "name": "Zurich",
    "country": "Switzerland",
    "latitude": 47.3769,
    "longitude": 8.5417
  },
  {
    "name": "Geneva",
    "country": "Switzerland",
    "latitude": 46.2044,
    "longitude": 6.1432
  },
  {
    "name": "Athens",
    "country": "Greece",
    "latitude": 37.9838,
    "longitude": 23.7275
  },
  {
    "name": "Thessaloniki",
    "country": "Greece",
    "latitude": 40.6401,
    "longitude": 22.9444
  },
  {
    "name": "Belgrade",
    "country": "Serbia",
    "latitude": 44.7866,
    "longitude": 20.4489
  },
  {
    "name": "Bucharest",
    "country": "Romania",
    "latitude": 44.4268,
    "longitude": 26.1025
  },
  {
    "name": "Sofia",
    "country": "Bulgaria",
    "latitude": 42.6977,
    "longitude": 23.3219
  },
  {
    "name": "Zagreb",
    "country": "Croatia",
    "latitude": 45.815,
    "longitude": 15.9819
  },
  {
    "name": "Ljubljana",
    "country": "Slovenia",
    "latitude": 46.0569,
    "longitude": 14.5058
  },
  {
    "name": "Bratislava",
    "country": "Slovakia",
    "latitude": 48.1486,
    "longitude": 17.1077
  },
  {
    "name": "Tallinn",
    "country": "Estonia",
    "latitude": 59.437,
    "longitude": 24.7536
  },
  {
    "name": "Riga",
    "country": "Latvia",
    "latitude": 56.9496,
    "longitude": 24.1052
  },
  {
    "name": "Vilnius",
    "country": "Lithuania",
    "latitude": 54.6872,
    "longitude": 25.2797
  },
  {
    "name": "Reykjavik",
    "country": "Iceland",
    "latitude": 64.1466,
    "longitude": -21.9426
  },
  {
    "name": "Kyiv",
    "country": "Ukraine",
    "latitude": 50.4501,
    "longitude": 30.5234
  },
  {
    "name": "Minsk",
    "country": "Belarus",
    "latitude": 53.9045,
    "longitude": 27.5615
  },
  {
    "name": "Istanbul",
    "country": "Turkey",
    "latitude": 41.0082,
    "longitude": 28.9784
  },
  {
    "name": "Ankara",
    "country": "Turkey",
    "latitude": 39.9334,
    "longitude": 32.8597
  },
  {
    "name": "Izmir",
    "country": "Turkey",
    "latitude": 38.4192,
    "longitude": 27.1287
  },
  {
    "name": "Antalya",
    "country": "Turkey",
    "latitude": 36.8969,
    "longitude": 30.7133
  },
  {
    "name": "Warsaw",
    "country": "Poland",
    "latitude": 52.2297,
    "longitude": 21.0122
  },
  {
    "name": "Gdańsk",
    "country": "Poland",
    "latitude": 54.352,
    "longitude": 18.6466
  },
  {
    "name": "Birmingham",
    "country": "UK",
    "latitude": 52.4862,
    "longitude": -1.8904
  },
  {
    "name": "Manchester",
    "country": "UK",
    "latitude": 53.4808,
    "longitude": -2.2426
  },
  {
    "name": "Glasgow",
    "country": "UK",
    "latitude": 55.8642,
    "longitude": -4.2518
  },
  {
    "name": "Edinburgh",
    "country": "UK",
    "latitude": 55.9533,
    "longitude": -3.1883
  },
  {
    "name": "Cairo",
    "country": "Egypt",
    "latitude": 30.0444,
    "longitude": 31.2357
  },
  {
    "name": "Alexandria",
    "country": "Egypt",
    "latitude": 31.2001,
    "longitude": 29.9187
  },
  {
    "name": "Lagos",
    "country": "Nigeria",
    "latitude": 6.5244,
    "longitude": 3.3792
  },
  {
    "name": "Abuja",
    "country": "Nigeria",
    "latitude": 9.0765,
    "longitude": 7.3986
  },
  {
    "name": "Ibadan",
    "country": "Nigeria",
    "latitude": 7.3775,
    "longitude": 3.947
  },
  {
    "name": "Kano",
    "country": "Nigeria",
    "latitude": 12.0022,
    "longitude": 8.592
  },
  {
    "name": "Nairobi",
    "country": "Kenya",
    "latitude": -1.2921,
    "longitude": 36.8219
  },
  {
    "name": "Mombasa",
    "country": "Kenya",
    "latitude": -4.0435,
    "longitude": 39.6682
  },
  {
    "name": "Johannesburg",
    "country": "South Africa",
    "latitude": -26.2041,
    "longitude": 28.0473
  },
  {
    "name": "Cape Town",
    "country": "South Africa",
    "latitude": -33.9249,
    "longitude": 18.4241
  },
  {
    "name": "Durban",
    "country": "South Africa",
    "latitude": -29.8587,
    "longitude": 31.0218
  },
  {
    "name": "Pretoria",
    "country": "South Africa",
    "latitude": -25.7479,
    "longitude": 28.2293
  },
  {
    "name": "Casablanca",
    "country": "Morocco",
    "latitude": 33.5731,
    "longitude": -7.5898
  },
  {
    "name": "Rabat",
    "country": "Morocco",
    "latitude": 34.0209,
    "longitude": -6.8416
  },
  {
    "name": "Marrakesh",
    "country": "Morocco",
    "latitude": 31.6295,
    "longitude": -7.9811
  },
  {
    "name": "Tunis",
    "country": "Tunisia",
    "latitude": 36.8065,
    "longitude": 10.1815
  },
  {
    "name": "Algiers",
    "country": "Algeria",
    "latitude": 36.7538,
    "longitude": 3.0588
  },
  {
    "name": "Tripoli",
    "country": "Libya",
    "latitude": 32.8872,
    "longitude": 13.1913
  },
  {
    "name": "Addis Ababa",
    "country": "Ethiopia",
    "latitude": 9.032,
    "longitude": 38.7469
  },
  {
    "name": "Dar es Salaam",
    "country": "Tanzania",
    "latitude": -6.7924,
    "longitude": 39.2083
  },
  {
    "name": "Kampala",
    "country": "Uganda",
    "latitude": 0.3476,
    "longitude": 32.5825
  },
  {
    "name": "Accra",
    "country": "Ghana",
    "latitude": 5.6037,
    "longitude": -0.187
  },
  {
    "name": "Kumasi",
    "country": "Ghana",
    "latitude": 6.6666,
    "longitude": -1.6163
  },
  {
    "name": "Dakar",
    "country": "Senegal",
    "latitude": 14.7167,
    "longitude": -17.4677
  },
  {
    "name": "Bamako",
    "country": "Mali",
    "latitude": 12.6392,
    "longitude": -8.0029
  },
  {
    "name": "Ouagadougou",
    "country": "Burkina Faso",
    "latitude": 12.3714,
    "longitude": -1.5197
  },
  {
    "name": "Abidjan",
    "country": "Ivory Coast",
    "latitude": 5.3599,
    "longitude": -4.0083
  },
  {
    "name": "Luanda",
    "country": "Angola",
    "latitude": -8.8399,
    "longitude": 13.2894
  },
  {
    "name": "Harare",
    "country": "Zimbabwe",
    "latitude": -17.8252,
    "longitude": 31.0335
  },
  {
    "name": "Maputo",
    "country": "Mozambique",
    "latitude": -25.9692,
    "longitude": 32.5732
  },
  {
    "name": "Lusaka",
    "country": "Zambia",
    "latitude": -15.3875,
    "longitude": 28.3228
  },
  {
    "name": "Kinshasa",
    "country": "DR Congo",
    "latitude": -4.4419,
    "longitude": 15.2663
  },
  {
    "name": "Brazzaville",
    "country": "Congo",
    "latitude": -4.2634,
    "longitude": 15.2429
  },
  {
    "name": "Khartoum",
    "country": "Sudan",
    "latitude": 15.5007,
    "longitude": 32.5599
  },
  {
    "name": "Antananarivo",
    "country": "Madagascar",
    "latitude": -18.8792,
    "longitude": 47.5079
  },
  {
    "name": "Lilongwe",
    "country": "Malawi",
    "latitude": -13.9626,
    "longitude": 33.7741
  },
  {
    "name": "Freetown",
    "country": "Sierra Leone",
    "latitude": 8.4657,
    "longitude": -13.2317
  },
  {
    "name": "Monrovia",
    "country": "Liberia",
    "latitude": 6.2907,
    "longitude": -10.7605
  },
  {
    "name": "Niamey",
    "country": "Niger",
    "latitude": 13.5127,
    "longitude": 2.1126
  },
  {
    "name": "Mogadishu",
    "country": "Somalia",
    "latitude": 2.0469,
    "longitude": 45.3182
  },
  {
    "name": "Delhi",
    "country": "India",
    "latitude": 28.7041,
    "longitude": 77.1025
  },
  {
    "name": "Mumbai",
    "country": "India",
    "latitude": 19.076,
    "longitude": 72.8777
  },
  {
    "name": "Bangalore",
    "country": "India",
    "latitude": 12.9716,
    "longitude": 77.5946
  },
  {
    "name": "Hyderabad",
    "country": "India",
    "latitude": 17.385,
    "longitude": 78.4867
  },
  {
    "name": "Chennai",
    "country": "India",
    "latitude": 13.0827,
    "longitude": 80.2707
  },
  {
    "name": "Kolkata",
    "country": "India",
    "latitude": 22.5726,
    "longitude": 88.3639
  },
  {
    "name": "Ahmedabad",
    "country": "India",
    "latitude": 23.0225,
    "longitude": 72.5714
  },
  {
    "name": "Pune",
    "country": "India",
    "latitude": 18.5204,
    "longitude": 73.8567
  },
  {
    "name": "Jaipur",
    "country": "India",
    "latitude": 26.9124,
    "longitude": 75.7873
  },
  {
    "name": "Lucknow",
    "country": "India",
    "latitude": 26.8467,
    "longitude": 80.9462
  },
  {
    "name": "Surat",
    "country": "India",
    "latitude": 21.1702,
    "longitude": 72.8311
  },
  {
    "name": "Kanpur",
    "country": "India",
    "latitude": 26.4499,
    "longitude": 80.3319
  },
  {
    "name": "Patna",
    "country": "India",
    "latitude": 25.5941,
    "longitude": 85.1376
  },
  {
    "name": "Bhopal",
    "country": "India",
    "latitude": 23.2599,
    "longitude": 77.4126
  },
  {
    "name": "Indore",
    "country": "India",
    "latitude": 22.7196,
    "longitude": 75.8577
  },
  {
    "name": "Beijing",
    "country": "China",
    "latitude": 39.9042,
    "longitude": 116.4074
  },
  {
    "name": "Shanghai",
    "country": "China",
    "latitude": 31.2304,
    "longitude": 121.4737
  },
  {
    "name": "Guangzhou",
    "country": "China",
    "latitude": 23.1291,
    "longitude": 113.2644
  },
  {
    "name": "Shenzhen",
    "country": "China",
    "latitude": 22.5431,
    "longitude": 114.0579
  },
  {
    "name": "Chengdu",
    "country": "China",
    "latitude": 30.5728,
    "longitude": 104.0668
  },
  {
    "name": "Tianjin",
    "country": "China",
    "latitude": 39.3434,
    "longitude": 117.3616
  },
  {
    "name": "Wuhan",
    "country": "China",
    "latitude": 30.5928,
    "longitude": 114.3055
  },
  {
    "name": "Nanjing",
    "country": "China",
    "latitude": 32.0603,
    "longitude": 118.7969
  },
  {
    "name": "Hangzhou",
    "country": "China",
    "latitude": 30.2741,
    "longitude": 120.1551
  },
  {
    "name": "Chongqing",
    "country": "China",
    "latitude": 29.4316,
    "longitude": 106.9123
  },
  {
    "name": "Xi'an",
    "country": "China",
    "latitude": 34.3416,
    "longitude": 108.9398
  },
  {
    "name": "Shenyang",
    "country": "China",
    "latitude": 41.8057,
    "longitude": 123.4315
  },
  {
    "name": "Qingdao",
    "country": "China",
    "latitude": 36.0671,
    "longitude": 120.3826
  },
  {
    "name": "Tokyo",
    "country": "Japan",
    "latitude": 35.6762,
    "longitude": 139.6503
  },
  {
    "name": "Osaka",
    "country": "Japan",
    "latitude": 34.6937,
    "longitude": 135.5023
  },
  {
    "name": "Yokohama",
    "country": "Japan",
    "latitude": 35.4437,
    "longitude": 139.638
  },
  {
    "name": "Nagoya",
    "country": "Japan",
    "latitude": 35.1815,
    "longitude": 136.9066
  },
  {
    "name": "Sapporo",
    "country": "Japan",
    "latitude": 43.0618,
    "longitude": 141.3545
  },
  {
    "name": "Fukuoka",
    "country": "Japan",
    "latitude": 33.59,
    "longitude": 130.4017
  },
  {
    "name": "Seoul",
    "country": "South Korea",
    "latitude": 37.5665,
    "longitude": 126.978
  },
  {
    "name": "Busan",
    "country": "South Korea",
    "latitude": 35.1796,
    "longitude": 129.0756
  },
  {
    "name": "Incheon",
    "country": "South Korea",
    "latitude": 37.4563,
    "longitude": 126.7052
  },
  {
    "name": "Bangkok",
    "country": "Thailand",
    "latitude": 13.7563,
    "longitude": 100.5018
  },
  {
    "name": "Chiang Mai",
    "country": "Thailand",
    "latitude": 18.7883,
    "longitude": 98.9853
  },
  {
    "name": "Phuket",
    "country": "Thailand",
    "latitude": 7.8804,
    "longitude": 98.3923
  },
  {
    "name": "Jakarta",
    "country": "Indonesia",
    "latitude": -6.2088,
    "longitude": 106.8456
  },
  {
    "name": "Surabaya",
    "country": "Indonesia",
    "latitude": -7.2575,
    "longitude": 112.7521
  },
  {
    "name": "Bandung",
    "country": "Indonesia",
    "latitude": -6.9175,
    "longitude": 107.6191
  },
  {
    "name": "Medan",
    "country": "Indonesia",
    "latitude": 3.5952,
    "longitude": 98.6722
  },
  {
    "name": "Manila",
    "country": "Philippines",
    "latitude": 14.5995,
    "longitude": 120.9842
  },
  {
    "name": "Quezon City",
    "country": "Philippines",
    "latitude": 14.676,
    "longitude": 121.0437
  },
  {
    "name": "Cebu City",
    "country": "Philippines",
    "latitude": 10.3157,
    "longitude": 123.8854
  },
  {
    "name": "Davao City",
    "country": "Philippines",
    "latitude": 7.1907,
    "longitude": 125.4553
  },
  {
    "name": "Ho Chi Minh City",
    "country": "Vietnam",
    "latitude": 10.8231,
    "longitude": 106.6297
  },
  {
    "name": "Hanoi",
    "country": "Vietnam",
    "latitude": 21.0278,
    "longitude": 105.8342
  },
  {
    "name": "Da Nang",
    "country": "Vietnam",
    "latitude": 16.0544,
    "longitude": 108.2022
  },
  {
    "name": "Kuala Lumpur",
    "country": "Malaysia",
    "latitude": 3.139,
    "longitude": 101.6869
  },
  {
    "name": "George Town",
    "country": "Malaysia",
    "latitude": 5.4141,
    "longitude": 100.3288
  },
  {
    "name": "Singapore",
    "country": "Singapore",
    "latitude": 1.3521,
    "longitude": 103.8198
  },
  {
    "name": "Yangon",
    "country": "Myanmar",
    "latitude": 16.8403,
    "longitude": 96.1735
  },
  {
    "name": "Mandalay",
    "country": "Myanmar",
    "latitude": 21.979,
    "longitude": 96.0896
  },
  {
    "name": "Dhaka",
    "country": "Bangladesh",
    "latitude": 23.8103,
    "longitude": 90.4125
  },
  {
    "name": "Chittagong",
    "country": "Bangladesh",
    "latitude": 22.3569,
    "longitude": 91.7832
  },
  {
    "name": "Karachi",
    "country": "Pakistan",
    "latitude": 24.8607,
    "longitude": 67.0011
  },
  {
    "name": "Lahore",
    "country": "Pakistan",
    "latitude": 31.5204,
    "longitude": 74.3587
  },
  {
    "name": "Islamabad",
    "country": "Pakistan",
    "latitude": 33.6844,
    "longitude": 73.0479
  },
  {
    "name": "Rawalpindi",
    "country": "Pakistan",
    "latitude": 33.5651,
    "longitude": 73.0169
  },
  {
    "name": "Colombo",
    "country": "Sri Lanka",
    "latitude": 6.9271,
    "longitude": 79.8612
  },
  {
    "name": "Kathmandu",
    "country": "Nepal",
    "latitude": 27.7172,
    "longitude": 85.324
  },
  {
    "name": "Pokhara",
    "country": "Nepal",
    "latitude": 28.2096,
    "longitude": 83.9856
  },
  {
    "name": "Bharatpur",
    "country": "Nepal",
    "latitude": 27.6833,
    "longitude": 84.4333
  },
  {
    "name": "Lalitpur",
    "country": "Nepal",
    "latitude": 27.6667,
    "longitude": 85.3333
  },
  {
    "name": "Birgunj",
    "country": "Nepal",
    "latitude": 27.0167,
    "longitude": 84.8667
  },
  {
    "name": "Biratnagar",
    "country": "Nepal",
    "latitude": 26.4549,
    "longitude": 87.2791
  },
  {
    "name": "Janakpur",
    "country": "Nepal",
    "latitude": 26.7288,
    "longitude": 85.9263
  },
  {
    "name": "Hetauda",
    "country": "Nepal",
    "latitude": 27.4167,
    "longitude": 85.0333
  },
  {
    "name": "Dhangadhi",
    "country": "Nepal",
    "latitude": 28.6833,
    "longitude": 80.6
  },
  {
    "name": "Butwal",
    "country": "Nepal",
    "latitude": 27.7,
    "longitude": 83.4667
  },
  {
    "name": "Nepalgunj",
    "country": "Nepal",
    "latitude": 28.05,
    "longitude": 81.6167
  },
  {
    "name": "Bhairahawa",
    "country": "Nepal",
    "latitude": 27.5,
    "longitude": 83.45
  },
  {
    "name": "Tansen",
    "country": "Nepal",
    "latitude": 27.8667,
    "longitude": 83.55
  },
  {
    "name": "Itahari",
    "country": "Nepal",
    "latitude": 26.6667,
    "longitude": 87.2833
  },
  {
    "name": "Damak",
    "country": "Nepal",
    "latitude": 26.6667,
    "longitude": 87.6833
  },
  {
    "name": "Ghorahi",
    "country": "Nepal",
    "latitude": 28.0333,
    "longitude": 82.4833
  },
  {
    "name": "Tulsipur",
    "country": "Nepal",
    "latitude": 28.1333,
    "longitude": 82.3
  },
  {
    "name": "Jitpur Simara",
    "country": "Nepal",
    "latitude": 27.1667,
    "longitude": 84.9833
  },
  {
    "name": "Kirtipur",
    "country": "Nepal",
    "latitude": 27.6786,
    "longitude": 85.2778
  },
  {
    "name": "Madhyapur Thimi",
    "country": "Nepal",
    "latitude": 27.6833,
    "longitude": 85.3833
  },
  {
    "name": "Tehran",
    "country": "Iran",
    "latitude": 35.6892,
    "longitude": 51.389
  },
  {
    "name": "Mashhad",
    "country": "Iran",
    "latitude": 36.2605,
    "longitude": 59.6168
  },
  {
    "name": "Isfahan",
    "country": "Iran",
    "latitude": 32.6546,
    "longitude": 51.668
  },
  {
    "name": "Baghdad",
    "country": "Iraq",
    "latitude": 33.3152,
    "longitude": 44.3661
  },
  {
    "name": "Riyadh",
    "country": "Saudi Arabia",
    "latitude": 24.7136,
    "longitude": 46.6753
  },
  {
    "name": "Jeddah",
    "country": "Saudi Arabia",
    "latitude": 21.2854,
    "longitude": 39.2376
  },
  {
    "name": "Mecca",
    "country": "Saudi Arabia",
    "latitude": 21.3891,
    "longitude": 39.8579
  },
  {
    "name": "Dubai",
    "country": "UAE",
    "latitude": 25.2048,
    "longitude": 55.2708
  },
  {
    "name": "Abu Dhabi",
    "country": "UAE",
    "latitude": 24.4539,
    "longitude": 54.3773
  },
  {
    "name": "Doha",
    "country": "Qatar",
    "latitude": 25.2854,
    "longitude": 51.531
  },
  {
    "name": "Kuwait City",
    "country": "Kuwait",
    "latitude": 29.3759,
    "longitude": 47.9774
  },
  {
    "name": "Muscat",
    "country": "Oman",
    "latitude": 23.588,
    "longitude": 58.3829
  },
  {
    "name": "Tashkent",
    "country": "Uzbekistan",
    "latitude": 41.2995,
    "longitude": 69.2401
  },
  {
    "name": "Almaty",
    "country": "Kazakhstan",
    "latitude": 43.222,
    "longitude": 76.8512
  },
  {
    "name": "Baku",
    "country": "Azerbaijan",
    "latitude": 40.4093,
    "longitude": 49.8671
  },
  {
    "name": "Tbilisi",
    "country": "Georgia",
    "latitude": 41.7151,
    "longitude": 44.8271
  },
  {
    "name": "Yerevan",
    "country": "Armenia",
    "latitude": 40.1792,
    "longitude": 44.4991
  },
  {
    "name": "Tel Aviv",
    "country": "Israel",
    "latitude": 32.0853,
    "longitude": 34.7818
  },
  {
    "name": "Jerusalem",
    "country": "Israel",
    "latitude": 31.7683,
    "longitude": 35.2137
  },
  {
    "name": "Amman",
    "country": "Jordan",
    "latitude": 31.9454,
    "longitude": 35.9284
  },
  {
    "name": "Beirut",
    "country": "Lebanon",
    "latitude": 33.8938,
    "longitude": 35.5018
  },
  {
    "name": "Damascus",
    "country": "Syria",
    "latitude": 33.5138,
    "longitude": 36.2765
  },
  {
    "name": "Sydney",
    "country": "Australia",
    "latitude": -33.8688,
    "longitude": 151.2093
  },
  {
    "name": "Melbourne",
    "country": "Australia",
    "latitude": -37.8136,
    "longitude": 144.9631
  },
  {
    "name": "Brisbane",
    "country": "Australia",
    "latitude": -27.4698,
    "longitude": 153.0251
  },
  {
    "name": "Perth",
    "country": "Australia",
    "latitude": -31.9505,
    "longitude": 115.8605
  },
  {
    "name": "Adelaide",
    "country": "Australia",
    "latitude": -34.9285,
    "longitude": 138.6007
  },
  {
    "name": "Gold Coast",
    "country": "Australia",
    "latitude": -28.0167,
    "longitude": 153.4
  },
  {
    "name": "Canberra",
    "country": "Australia",
    "latitude": -35.2809,
    "longitude": 149.13
  },
  {
    "name": "Hobart",
    "country": "Australia",
    "latitude": -42.8821,
    "longitude": 147.3272
  },
  {
    "name": "Auckland",
    "country": "New Zealand",
    "latitude": -36.8485,
    "longitude": 174.7633
  },
  {
    "name": "Wellington",
    "country": "New Zealand",
    "latitude": -41.2865,
    "longitude": 174.7762
  },
  {
    "name": "Christchurch",
    "country": "New Zealand",
    "latitude": -43.532,
    "longitude": 172.6362
  },
  {
    "name": "Port Moresby",
    "country": "Papua New Guinea",
    "latitude": -9.4438,
    "longitude": 147.1803
  },
  {
    "name": "Suva",
    "country": "Fiji",
    "latitude": -18.1416,
    "longitude": 178.4419
  },
  {
    "name": "Nouméa",
    "country": "New Caledonia",
    "latitude": -22.2558,
    "longitude": 166.4505
  },
  {
    "name": "Honolulu",
    "country": "USA",
    "latitude": 21.3069,
    "longitude": -157.8583
  },
  {
    "name": "Anchorage",
    "country": "USA",
    "latitude": 61.2181,
    "longitude": -149.9003
  },
  {
    "name": "Darwin",
    "country": "Australia",
    "latitude": -12.4634,
    "longitude": 130.8456
  },
  {
    "name": "Cairns",
    "country": "Australia",
    "latitude": -16.9186,
    "longitude": 145.7781
  },
  {
    "name": "Apia",
    "country": "Samoa",
    "latitude": -13.833,
    "longitude": -171.7664
  },
  {
    "name": "Nuku'alofa",
    "country": "Tonga",
    "latitude": -21.1393,
    "longitude": -175.2048
  }
]